[
  {
    "picker": "thddbcjf",
    "region": "안양 평촌학원가",
    "name": "억떡볶이",
    "note": "추억은 현재진행듕",
    "rating": null,
    "link": "https://blog.naver.com/thddbcjf/224355010343",
    "place": {
      "placeId": "1209575927",
      "name": "억떡볶이",
      "address": "경기도 안양시 동안구 평촌대로 127 중앙상가 1층 억떡볶이",
      "lat": 37.3833212,
      "lng": 126.9595726,
      "tel": "0507-1306-4057"
    }
  },
  {
    "picker": "thddbcjf",
    "region": "안산 월피동",
    "name": "시랑면옥",
    "note": "거주지와 가깝다면",
    "rating": null,
    "link": "https://blog.naver.com/thddbcjf/224349964304",
    "place": {
      "placeId": "1972042921",
      "name": "시랑면옥",
      "address": "경기도 안산시 상록구 시낭로 39",
      "lat": 37.3345995,
      "lng": 126.8541947,
      "tel": "031-486-1101"
    }
  },
  {
    "picker": "thddbcjf",
    "region": "안양",
    "name": "연제면옥",
    "note": "새로운 평세권",
    "rating": null,
    "link": "https://blog.naver.com/thddbcjf/224348053278",
    "place": {
      "placeId": "2069269306",
      "name": "연제면옥",
      "address": "경기도 안양시 만안구 장내로120번길 81 1층",
      "lat": 37.393745,
      "lng": 126.9239278,
      "tel": "0507-1309-9030"
    }
  },
  {
    "picker": "thddbcjf",
    "region": "인천 송림동",
    "name": "대성각",
    "note": "정겹고 은은하다",
    "rating": null,
    "link": "https://blog.naver.com/thddbcjf/224344717219",
    "place": {
      "placeId": "13202156",
      "name": "대성각",
      "address": "인천광역시 제물포구 금곡로82번길 5",
      "lat": 37.4729641,
      "lng": 126.64467,
      "tel": "032-763-4079"
    }
  },
  {
    "picker": "thddbcjf",
    "region": "안양",
    "name": "할아버지참나무장작구이",
    "note": "맹목적 찬양",
    "rating": null,
    "link": "https://blog.naver.com/thddbcjf/224341052743",
    "place": {
      "placeId": "1813629847",
      "name": "할아버지 참나무 장작구이",
      "address": "경기도 안양시 만안구 양화로25번길 20-4 1층",
      "lat": 37.395609,
      "lng": 126.9138717,
      "tel": "0507-1411-9624"
    }
  },
  {
    "picker": "thddbcjf",
    "region": "동인천역",
    "name": "아람골포장마차",
    "note": "흐뭇흐뭇",
    "rating": null,
    "link": "https://blog.naver.com/thddbcjf/224336718920",
    "place": {
      "placeId": "21498558",
      "name": "아람골포장마차",
      "address": "인천광역시 제물포구 화도진로56번길 11-2",
      "lat": 37.4778876,
      "lng": 126.6330609,
      "tel": null
    }
  },
  {
    "picker": "thddbcjf",
    "region": "평촌역",
    "name": "오로지짬뽕",
    "note": "리프레시",
    "rating": null,
    "link": "https://blog.naver.com/thddbcjf/224335928407",
    "place": {
      "placeId": "1703522338",
      "name": "오로지짬뽕 평촌직영점",
      "address": "경기도 안양시 동안구 관평로182번길 31 2층 202호",
      "lat": 37.3939075,
      "lng": 126.9620266,
      "tel": "070-7576-1993"
    }
  },
  {
    "picker": "thddbcjf",
    "region": "인천",
    "name": "토시살숯불구이",
    "note": "공간과 풍미",
    "rating": null,
    "link": "https://blog.naver.com/thddbcjf/224334878047",
    "place": {
      "placeId": "16381627",
      "name": "토시살숯불구이",
      "address": "인천광역시 동구 송림로 10-1",
      "lat": 37.4728905,
      "lng": 126.6364411,
      "tel": "032-763-3437"
    }
  },
  {
    "picker": "thddbcjf",
    "region": "과천",
    "name": "관악관",
    "note": "2027 소비자리포트",
    "rating": null,
    "link": "https://blog.naver.com/thddbcjf/224330268417",
    "place": {
      "placeId": "1760546076",
      "name": "관악관 과천점",
      "address": "경기도 과천시 관문로 92 비동 107, 108호",
      "lat": 37.4298071,
      "lng": 126.9905619,
      "tel": "02-6953-6420"
    }
  },
  {
    "picker": "thddbcjf",
    "region": "서초 잠원동",
    "name": "무한쌈밥집",
    "note": "구성의 힘",
    "rating": null,
    "link": "https://blog.naver.com/thddbcjf/224325371692",
    "place": {
      "placeId": "18760353",
      "name": "무한쌈밥집",
      "address": "서울특별시 서초구 강남대로93길 23-10",
      "lat": 37.5123802,
      "lng": 127.0188614,
      "tel": "02-3444-6920"
    }
  },
  {
    "picker": "thddbcjf",
    "region": "평촌역",
    "name": "크래버대게나라",
    "note": "대게는 원래 맛있지",
    "rating": null,
    "link": "https://blog.naver.com/thddbcjf/224322267087",
    "place": {
      "placeId": "36939342",
      "name": "크래버대게나라 안양점",
      "address": "경기도 안양시 동안구 관평로 186",
      "lat": 37.393317,
      "lng": 126.9604181,
      "tel": "031-383-1116"
    }
  },
  {
    "picker": "thddbcjf",
    "region": "분당 서현역",
    "name": "한양김치찌개",
    "note": "찌개보다 제육",
    "rating": null,
    "link": "https://blog.naver.com/thddbcjf/224320460287",
    "place": {
      "placeId": "1040157240",
      "name": "한양김치찌개 서현직영점",
      "address": "경기도 성남시 분당구 황새울로351번길 10",
      "lat": 37.3876203,
      "lng": 127.1232165,
      "tel": "0507-1329-5695"
    }
  },
  {
    "picker": "thddbcjf",
    "region": "안양 평촌",
    "name": "굽네치킨",
    "note": "튀김에 지친 당신에게",
    "rating": null,
    "link": "https://blog.naver.com/thddbcjf/224316021234",
    "place": {
      "placeId": "12807581",
      "name": "굽네치킨 귀인평안점",
      "address": "경기도 안양시 동안구 귀인로190번길 61-3 1층 굽네치킨",
      "lat": 37.382888,
      "lng": 126.9617872,
      "tel": "0504-3143-8516"
    }
  },
  {
    "picker": "thddbcjf",
    "region": "잠실 송파",
    "name": "나니요리",
    "note": "세월이 야속해",
    "rating": null,
    "link": "https://blog.naver.com/thddbcjf/224315230454",
    "place": {
      "placeId": "1745144740",
      "name": "나니요리",
      "address": "서울특별시 송파구 백제고분로46길 4 1층",
      "lat": 37.5085069,
      "lng": 127.1119274,
      "tel": "0507-1419-5265"
    }
  },
  {
    "picker": "thddbcjf",
    "region": "의왕 부곡",
    "name": "도마다리",
    "note": "그리운 빨간 맛",
    "rating": null,
    "link": "https://blog.naver.com/thddbcjf/224314512472",
    "place": {
      "placeId": "1912334575",
      "name": "도마다리뼈다귀전문점",
      "address": "경기도 의왕시 신장승길 30 1층 104호 도마다리 뼈다귀전문점",
      "lat": 37.3202862,
      "lng": 126.9569654,
      "tel": "0507-1312-7555"
    }
  },
  {
    "picker": "thddbcjf",
    "region": "사당 이수",
    "name": "남산터",
    "note": "고급지군요",
    "rating": null,
    "link": "https://blog.naver.com/thddbcjf/224312386866",
    "place": {
      "placeId": "1183537345",
      "name": "남산터 이수점",
      "address": "서울특별시 서초구 동작대로 68 1층",
      "lat": 37.4825801,
      "lng": 126.9823053,
      "tel": "0507-1330-1982"
    }
  },
  {
    "picker": "thddbcjf",
    "region": "범계역",
    "name": "kfc",
    "note": "킵고잉!",
    "rating": null,
    "link": "https://blog.naver.com/thddbcjf/224311321930",
    "place": {
      "placeId": "2078013205",
      "name": "KFC 범계역",
      "address": "경기도 안양시 동안구 동안로 128",
      "lat": 37.3903199,
      "lng": 126.9516969,
      "tel": "031-360-3766"
    }
  },
  {
    "picker": "thddbcjf",
    "region": "마포",
    "name": "을밀대 본점",
    "note": "나도 한번 불러본다",
    "rating": null,
    "link": "https://blog.naver.com/thddbcjf/224309052792",
    "place": {
      "placeId": "11679611",
      "name": "을밀대 평양냉면",
      "address": "서울특별시 마포구 숭문길 24",
      "lat": 37.5474904,
      "lng": 126.9455004,
      "tel": "02-717-1922"
    }
  },
  {
    "picker": "thddbcjf",
    "region": "안양 관양동",
    "name": "명동중화요리",
    "note": "전설의 포켓몬",
    "rating": null,
    "link": "https://blog.naver.com/thddbcjf/224307490528",
    "place": {
      "placeId": "1566703032",
      "name": "명동중화요리",
      "address": "경기도 안양시 동안구 관악대로 421",
      "lat": 37.4051088,
      "lng": 126.9697082,
      "tel": null
    }
  },
  {
    "picker": "thddbcjf",
    "region": "강남 신논현역",
    "name": "천안문",
    "note": "어제보다 나은 오늘",
    "rating": null,
    "link": "https://blog.naver.com/thddbcjf/224302231279",
    "place": {
      "placeId": "18293357",
      "name": "천안문",
      "address": "서울특별시 서초구 사평대로55길 42 2층",
      "lat": 37.5058999,
      "lng": 127.0222262,
      "tel": "02-518-0231"
    }
  },
  {
    "picker": "thddbcjf",
    "region": "안양예술공원",
    "name": "봉암식당",
    "note": "그래도 이쪽에선",
    "rating": null,
    "link": "https://blog.naver.com/thddbcjf/224301398789",
    "place": {
      "placeId": "13348943",
      "name": "봉암식당",
      "address": "경기도 안양시 만안구 예술공원로245번길 15",
      "lat": 37.4191499,
      "lng": 126.9324398,
      "tel": "031-471-7428"
    }
  },
  {
    "picker": "thddbcjf",
    "region": "서울 시청역",
    "name": "진주회관",
    "note": "콩깍지 씌우기",
    "rating": null,
    "link": "https://blog.naver.com/thddbcjf/224299593523",
    "place": {
      "placeId": "11679660",
      "name": "진주회관",
      "address": "서울특별시 중구 세종대로11길 26",
      "lat": 37.5623209,
      "lng": 126.974513,
      "tel": "02-753-5388"
    }
  },
  {
    "picker": "thddbcjf",
    "region": "관악 신림역",
    "name": "또순이원조순대",
    "note": "백순대 솔플",
    "rating": null,
    "link": "https://blog.naver.com/thddbcjf/224295507893",
    "place": {
      "placeId": "11711954",
      "name": "또순이원조순대 본점",
      "address": "서울특별시 관악구 신림로59길 14",
      "lat": 37.483316,
      "lng": 126.9286503,
      "tel": "0507-1400-7565"
    }
  },
  {
    "picker": "thddbcjf",
    "region": "안양 삼막사",
    "name": "천년풍천장어",
    "note": "가격으로 기강 잡기",
    "rating": null,
    "link": "https://blog.naver.com/thddbcjf/224294799753",
    "place": {
      "placeId": "1974344804",
      "name": "천년풍천장어",
      "address": "경기도 안양시 만안구 삼막로 34 2층",
      "lat": 37.4224818,
      "lng": 126.9118864,
      "tel": "031-471-6843"
    }
  },
  {
    "picker": "thddbcjf",
    "region": "연남동",
    "name": "쿄라멘",
    "note": "그저빛우주",
    "rating": null,
    "link": "https://blog.naver.com/thddbcjf/224292991850",
    "place": {
      "placeId": "1636571197",
      "name": "쿄 라멘",
      "address": "서울특별시 마포구 동교로46길 25 지층 쿄, 라멘",
      "lat": 37.5622874,
      "lng": 126.9261473,
      "tel": "0507-1327-8043"
    }
  },
  {
    "picker": "thddbcjf",
    "region": "안양 호계동",
    "name": "장수옥",
    "note": "장수옥은 뽀얀 걸로",
    "rating": null,
    "link": "https://blog.naver.com/thddbcjf/224291954702",
    "place": {
      "placeId": "13390929",
      "name": "장수옥설렁탕",
      "address": "경기도 안양시 동안구 경수대로 499",
      "lat": 37.36704,
      "lng": 126.9578238,
      "tel": "031-456-6833"
    }
  },
  {
    "picker": "thddbcjf",
    "region": "영등포 문래동",
    "name": "이치니이치",
    "note": "당신은 대체…",
    "rating": null,
    "link": "https://blog.naver.com/thddbcjf/224290821808",
    "place": {
      "placeId": "2010774012",
      "name": "이치니이치",
      "address": "서울특별시 영등포구 도림로 439 1층",
      "lat": 37.5144372,
      "lng": 126.8942038,
      "tel": "0507-1488-0867"
    }
  },
  {
    "picker": "thddbcjf",
    "region": "인덕원",
    "name": "출항",
    "note": "꼬숩꼬숩",
    "rating": null,
    "link": "https://blog.naver.com/thddbcjf/224288553017",
    "place": {
      "placeId": "2004444710",
      "name": "출항 인덕원점",
      "address": "경기도 안양시 동안구 인덕원로24번길 26 102호, 103호",
      "lat": 37.4011614,
      "lng": 126.9750715,
      "tel": "0507-1325-1917"
    }
  },
  {
    "picker": "thddbcjf",
    "region": "연천",
    "name": "오두막골식당",
    "note": "육수추가!",
    "rating": null,
    "link": "https://blog.naver.com/thddbcjf/224287043186",
    "place": {
      "placeId": "18871516",
      "name": "오두막골식당",
      "address": "경기도 연천군 청산면 청창로141번길 78",
      "lat": 38.0109645,
      "lng": 127.0773488,
      "tel": "031-832-4177"
    }
  },
  {
    "picker": "thddbcjf",
    "region": "안양 호계동",
    "name": "대교웰빙음식카페",
    "note": "보양 한마당",
    "rating": null,
    "link": "https://blog.naver.com/thddbcjf/224284864872",
    "place": {
      "placeId": "1024888057",
      "name": "대교웰빙음식카페",
      "address": "경기도 안양시 동안구 경수대로 607 5층 대교웰빙음식카페",
      "lat": 37.3765675,
      "lng": 126.955571,
      "tel": "0507-1356-4575"
    }
  },
  {
    "picker": "thddbcjf",
    "region": "마포 공덕",
    "name": "굴다리식당",
    "note": "메뉴의 간극",
    "rating": null,
    "link": "https://blog.naver.com/thddbcjf/224283625087",
    "place": {
      "placeId": "11707324",
      "name": "굴다리식당",
      "address": "서울특별시 마포구 새창로 8-1",
      "lat": 37.5421254,
      "lng": 126.9508191,
      "tel": "02-712-0066"
    }
  },
  {
    "picker": "thddbcjf",
    "region": "범계",
    "name": "올데이타코",
    "note": "멕시칸 호외!",
    "rating": null,
    "link": "https://blog.naver.com/thddbcjf/224280520709",
    "place": {
      "placeId": "1348707959",
      "name": "올데이타코",
      "address": "경기도 안양시 동안구 평촌대로223번길 16 1층 107호",
      "lat": 37.3913563,
      "lng": 126.9546436,
      "tel": "0507-1371-4119"
    }
  },
  {
    "picker": "thddbcjf",
    "region": "시흥",
    "name": "능곡 홍콩반점",
    "note": "유니콘 찾기",
    "rating": null,
    "link": "https://blog.naver.com/thddbcjf/224278305567",
    "place": {
      "placeId": "1484629045",
      "name": "홍콩반점0410 시흥능곡점",
      "address": "경기도 시흥시 능곡번영길 34 센텀시티3 1층 110,111호",
      "lat": 37.3698732,
      "lng": 126.8065768,
      "tel": "031-318-0776"
    }
  },
  {
    "picker": "thddbcjf",
    "region": "안양 호계동",
    "name": "희래등",
    "note": "들쑥날쑥",
    "rating": null,
    "link": "https://blog.naver.com/thddbcjf/224275888288",
    "place": {
      "placeId": "18738974",
      "name": "희래등 호계점",
      "address": "경기도 안양시 동안구 경수대로 588 행복움트빌딩 2층",
      "lat": 37.3751227,
      "lng": 126.9571356,
      "tel": "031-459-2777"
    }
  },
  {
    "picker": "thddbcjf",
    "region": "동작 노량진",
    "name": "초메",
    "note": "행복시티 노량진",
    "rating": null,
    "link": "https://blog.naver.com/thddbcjf/224272378929",
    "place": {
      "placeId": "2098353461",
      "name": "초메",
      "address": "서울특별시 동작구 만양로14길 10 1층",
      "lat": 37.5114136,
      "lng": 126.9450263,
      "tel": "0507-1350-2167"
    }
  },
  {
    "picker": "thddbcjf",
    "region": "범계",
    "name": "제주바닷골",
    "note": "봄날의 부시리",
    "rating": null,
    "link": "https://blog.naver.com/thddbcjf/224269872844",
    "place": {
      "placeId": "2014286573",
      "name": "제주바닷골 안양범계점",
      "address": "경기도 안양시 동안구 평촌대로217번길 19 1층",
      "lat": 37.3905981,
      "lng": 126.954705,
      "tel": "0507-1311-9272"
    }
  },
  {
    "picker": "thddbcjf",
    "region": "동두천",
    "name": "하루방",
    "note": "24시운영되는 상남자 양성소",
    "rating": null,
    "link": "https://blog.naver.com/thddbcjf/224266095556",
    "place": {
      "placeId": "18006315",
      "name": "하루방",
      "address": "경기도 동두천시 중앙로 359",
      "lat": 37.9131199,
      "lng": 127.0567087,
      "tel": "031-865-3651"
    }
  },
  {
    "picker": "thddbcjf",
    "region": "범계",
    "name": "속초오징어어시장",
    "note": "범계의 상권",
    "rating": null,
    "link": "https://blog.naver.com/thddbcjf/224264326528",
    "place": null
  },
  {
    "picker": "fascinoya",
    "region": "부산",
    "name": "하가원",
    "note": "해운대 장산 콩국수 메뉴 점심 웨이팅 등",
    "rating": "추천",
    "link": "https://blog.naver.com/fascinoya/224354139472",
    "place": {
      "placeId": "13572713",
      "name": "하가원 해운대점",
      "address": "부산광역시 해운대구 좌동로91번길 28",
      "lat": 35.1733965,
      "lng": 129.1742541,
      "tel": "051-702-5511"
    }
  },
  {
    "picker": "fascinoya",
    "region": "울산",
    "name": "리아노",
    "note": "남구청 콜키지 프리 이탈리아 요리 전문점 저녁 메뉴",
    "rating": "추천",
    "link": "https://blog.naver.com/fascinoya/224353380242",
    "place": {
      "placeId": "2033132601",
      "name": "리아노",
      "address": "울산광역시 남구 왕생로 136 1층",
      "lat": 35.545238,
      "lng": 129.3288093,
      "tel": "0507-1495-6792"
    }
  },
  {
    "picker": "fascinoya",
    "region": "군자",
    "name": "롱메",
    "note": "아부라소바 라멘 웨이팅 등 저녁 혼밥 메뉴 추천",
    "rating": "강추",
    "link": "https://blog.naver.com/fascinoya/224352793783",
    "place": {
      "placeId": "1179111936",
      "name": "롱메",
      "address": "서울특별시 광진구 긴고랑로8길 79 1층",
      "lat": 37.5600534,
      "lng": 127.0773199,
      "tel": "02-6951-0272"
    }
  },
  {
    "picker": "fascinoya",
    "region": "부산",
    "name": "부산애",
    "note": "혼밥하기 좋은 산성식 삼계 백반 메뉴 후기 점심 웨이팅 등",
    "rating": "추천",
    "link": "https://blog.naver.com/fascinoya/224351914184",
    "place": {
      "placeId": "2088271373",
      "name": "부산애",
      "address": "부산광역시 수영구 광안로7번길 51 1층",
      "lat": 35.1593773,
      "lng": 129.1142356,
      "tel": "0507-1307-1255"
    }
  },
  {
    "picker": "fascinoya",
    "region": "군자",
    "name": "유니드라멘",
    "note": "웨이팅 요령 및 탄탄멘 후기 점심 혼밥 메뉴 추천",
    "rating": "강추",
    "link": "https://blog.naver.com/fascinoya/224351319991",
    "place": {
      "placeId": "1230372846",
      "name": "유니드라멘",
      "address": "서울특별시 광진구 능동로37길 44 유니드라멘",
      "lat": 37.5588285,
      "lng": 127.0776183,
      "tel": "0507-1367-6418"
    }
  },
  {
    "picker": "fascinoya",
    "region": "울산",
    "name": "베이커리 그리뉴",
    "note": "망고 베이글 샌드위치와 소세지빵 맛집 브런치 메뉴 추천",
    "rating": "강추",
    "link": "https://blog.naver.com/fascinoya/224351145378",
    "place": {
      "placeId": "2049817625",
      "name": "베이커리 그리뉴",
      "address": "울산광역시 남구 삼산중로114번길 20 1층",
      "lat": 35.5435019,
      "lng": 129.3378784,
      "tel": "0507-1366-7918"
    }
  },
  {
    "picker": "fascinoya",
    "region": "안국",
    "name": "라 타르타",
    "note": "스페인서 건너온 신상 치즈 케이크 맛집 웨이팅 추천 메뉴",
    "rating": "강추",
    "link": "https://blog.naver.com/fascinoya/224350291133",
    "place": {
      "placeId": "2146048859",
      "name": "라 타르타 데 라 마드레 데 크리스 코리아",
      "address": "서울특별시 종로구 창덕궁1길 39 1층 라타르타",
      "lat": 37.5792653,
      "lng": 126.9870344,
      "tel": "070-4801-0599"
    }
  },
  {
    "picker": "fascinoya",
    "region": "부산",
    "name": "서정",
    "note": "코스요리와 와인페어링, 공간 모두 훌륭한 해운대 파인다이닝",
    "rating": "강추",
    "link": "https://blog.naver.com/fascinoya/224346162706",
    "place": {
      "placeId": "2082267813",
      "name": "서정",
      "address": "부산광역시 해운대구 달맞이길 30 엘시티 제포디움동 3층 3020호",
      "lat": 35.1597657,
      "lng": 129.1686983,
      "tel": "0507-1317-3020"
    }
  },
  {
    "picker": "fascinoya",
    "region": "부산",
    "name": "사카나라멘",
    "note": "특선 참돔 쇼유 라멘 후기 점심 혼밥 메뉴 추천",
    "rating": "강추",
    "link": "https://blog.naver.com/fascinoya/224345202393",
    "place": {
      "placeId": "2030397790",
      "name": "사카나라멘",
      "address": "부산광역시 수영구 수영로610번길 7 1층 사카나라멘 [SAKANA RAMEN]",
      "lat": 35.1602727,
      "lng": 129.1140851,
      "tel": "0507-1364-3115"
    }
  },
  {
    "picker": "fascinoya",
    "region": "서울역",
    "name": "드로우 에스프레소바",
    "note": "충정로 아포가토와 바스크 치즈케이크 추천 원두 커피",
    "rating": "강추",
    "link": "https://blog.naver.com/fascinoya/224344183315",
    "place": {
      "placeId": "1760457374",
      "name": "드로우에스프레소바",
      "address": "서울특별시 중구 청파로 453 1층 드로우에스프레소바",
      "lat": 37.5598202,
      "lng": 126.9679979,
      "tel": "0507-1477-8955"
    }
  },
  {
    "picker": "fascinoya",
    "region": "부산",
    "name": "이재모피자 서면중앙점",
    "note": "뜬금없이 김치볶음밥이 별미인 피자집",
    "rating": "추천",
    "link": "https://blog.naver.com/fascinoya/224343311718",
    "place": {
      "placeId": "2006281317",
      "name": "이재모피자 서면중앙점",
      "address": "부산광역시 부산진구 중앙대로691번길 5",
      "lat": 35.1543795,
      "lng": 129.0587693,
      "tel": "051-802-1478"
    }
  },
  {
    "picker": "fascinoya",
    "region": "을지로",
    "name": "포비 을지로점",
    "note": "청계천 베이글 샌드위치 맛집 아침 브런치 메뉴",
    "rating": "추천",
    "link": "https://blog.naver.com/fascinoya/224342391767",
    "place": {
      "placeId": "1475084048",
      "name": "포비 을지로점",
      "address": "서울특별시 중구 청계천로 100 시그니처 타워 1층",
      "lat": 37.5677094,
      "lng": 126.9882798,
      "tel": "02-6020-0880"
    }
  },
  {
    "picker": "fascinoya",
    "region": "부산",
    "name": "소수인",
    "note": "서면 이자카야 사케 콜키지 후기 고등어 봉초밥 사시미 안주",
    "rating": "추천",
    "link": "https://blog.naver.com/fascinoya/224341338520",
    "place": {
      "placeId": "1138458549",
      "name": "소수인",
      "address": "부산광역시 부산진구 부전로 75-5 1층 소수인",
      "lat": 35.1566228,
      "lng": 129.0542235,
      "tel": "051-808-4036"
    }
  },
  {
    "picker": "fascinoya",
    "region": "대전",
    "name": "챔프스페이스 커피로스터스",
    "note": "대전역 근처 원두 커피 칵테일과 크림 라떼 맛집",
    "rating": "추천",
    "link": "https://blog.naver.com/fascinoya/224340606040",
    "place": {
      "placeId": "1303922193",
      "name": "챔프스페이스 커피로스터스",
      "address": "대전광역시 동구 수향길 97 챔프스페이스 커피로스터즈",
      "lat": 36.3358812,
      "lng": 127.4370814,
      "tel": "0507-1425-5388"
    }
  },
  {
    "picker": "fascinoya",
    "region": "부산",
    "name": "에어리커피",
    "note": "35천원짜리 커피맛은 어떨까? 핸드 드립 원두 커피와 라떼 추천",
    "rating": "강추",
    "link": "https://blog.naver.com/fascinoya/224339087482",
    "place": {
      "placeId": "1452367571",
      "name": "에어리커피",
      "address": "부산광역시 중구 중앙대로 47 지상 1~2층",
      "lat": 35.1018293,
      "lng": 129.0361871,
      "tel": "0507-1411-0088"
    }
  },
  {
    "picker": "fascinoya",
    "region": "대전",
    "name": "연운각딤섬",
    "note": "한남대 만두와 볶음면 점심 메뉴 추천",
    "rating": "강추",
    "link": "https://blog.naver.com/fascinoya/224337877311",
    "place": {
      "placeId": "1431960450",
      "name": "연운각딤섬",
      "address": "대전광역시 동구 홍도로 53 1층 101호",
      "lat": 36.3507959,
      "lng": 127.4280546,
      "tel": "042-623-1016"
    }
  },
  {
    "picker": "fascinoya",
    "region": "울산",
    "name": "부산할매 선지국",
    "note": "달동 수구레 국밥 점심 혼밥 메뉴",
    "rating": "추천",
    "link": "https://blog.naver.com/fascinoya/224336793953",
    "place": {
      "placeId": "36091693",
      "name": "부산할매선지국",
      "address": "울산광역시 남구 신정로54번길 39 1층 103호",
      "lat": 35.5377314,
      "lng": 129.3256365,
      "tel": "052-267-5557"
    }
  }
]